[
  {
    "name": "星采整形外科診所 大安",
    "address": "台北市大安區復興南路一段214號2樓",
    "district": "大安區",
    "city": "台北市",
    "lat": 25.0380,
    "lng": 121.5437,
    "phone": "02-2711-0072",
    "rating": 4.3,
    "reviewCount": 245
  },
  {
    "name": "星和診所 台北",
    "address": "台北市中正區館前路12號3樓",
    "district": "中正區",
    "city": "台北市",
    "lat": 25.0461,
    "lng": 121.5151,
    "phone": "02-2381-5678",
    "rating": 4.2,
    "reviewCount": 310
  },
  {
    "name": "悠美診所 忠孝旗艦",
    "address": "台北市大安區忠孝東路四段67號5樓",
    "district": "大安區",
    "city": "台北市",
    "lat": 25.0416,
    "lng": 121.5479,
    "phone": "02-2751-2066",
    "rating": 4.4,
    "reviewCount": 380
  },
  {
    "name": "膚適美診所",
    "address": "台北市大安區忠孝東路四段2號6樓",
    "district": "大安區",
    "city": "台北市",
    "lat": 25.0418,
    "lng": 121.5433,
    "phone": "02-2731-1455",
    "rating": 4.5,
    "reviewCount": 420
  },
  {
    "name": "淨妍醫美診所 台北忠孝",
    "address": "台北市大安區忠孝東路四段176號4樓",
    "district": "大安區",
    "city": "台北市",
    "lat": 25.0415,
    "lng": 121.5520,
    "phone": "02-2778-2198",
    "rating": 4.3,
    "reviewCount": 290
  },
  {
    "name": "元和雅診所 台北",
    "address": "台北市中正區忠孝西路一段36號3樓",
    "district": "中正區",
    "city": "台北市",
    "lat": 25.0462,
    "lng": 121.5155,
    "phone": "02-2381-8886",
    "rating": 4.1,
    "reviewCount": 185
  },
  {
    "name": "光澤診所 台北",
    "address": "台北市大安區忠孝東路四段49號4樓",
    "district": "大安區",
    "city": "台北市",
    "lat": 25.0417,
    "lng": 121.5468,
    "phone": "02-2778-2656",
    "rating": 4.4,
    "reviewCount": 350
  },
  {
    "name": "渾然天成整形醫美診所",
    "address": "台北市中山區長春路2號4樓",
    "district": "中山區",
    "city": "台北市",
    "lat": 25.0528,
    "lng": 121.5230,
    "phone": "02-2523-2328",
    "rating": 4.6,
    "reviewCount": 480
  },
  {
    "name": "極光美學診所",
    "address": "台北市中山區南京東路二段62號8樓",
    "district": "中山區",
    "city": "台北市",
    "lat": 25.0522,
    "lng": 121.5316,
    "phone": "02-2567-3939",
    "rating": 4.5,
    "reviewCount": 395
  },
  {
    "name": "上立皮膚科診所",
    "address": "台北市大安區仁愛路四段48巷5號1樓",
    "district": "大安區",
    "city": "台北市",
    "lat": 25.0375,
    "lng": 121.5473,
    "phone": "02-2703-7222",
    "rating": 4.3,
    "reviewCount": 265
  },
  {
    "name": "法喬醫美診所 台北",
    "address": "台北市中山區南京東路一段24號8樓",
    "district": "中山區",
    "city": "台北市",
    "lat": 25.0525,
    "lng": 121.5255,
    "phone": "02-2542-8288",
    "rating": 4.2,
    "reviewCount": 220
  },
  {
    "name": "願麗醫美診所",
    "address": "台北市中山區民生東路二段39號3樓",
    "district": "中山區",
    "city": "台北市",
    "lat": 25.0578,
    "lng": 121.5325,
    "phone": "02-2567-5757",
    "rating": 4.4,
    "reviewCount": 310
  },
  {
    "name": "愛爾麗醫美診所 台北忠孝",
    "address": "台北市大安區忠孝東路四段128號",
    "district": "大安區",
    "city": "台北市",
    "lat": 25.0415,
    "lng": 121.5495,
    "phone": "02-2771-3268",
    "rating": 4.0,
    "reviewCount": 195
  },
  {
    "name": "佳醫美人診所 忠孝",
    "address": "台北市大安區忠孝東路四段312號6樓",
    "district": "大安區",
    "city": "台北市",
    "lat": 25.0413,
    "lng": 121.5555,
    "phone": "02-2711-9587",
    "rating": 4.3,
    "reviewCount": 270
  },
  {
    "name": "首爾醫美診所 台北",
    "address": "台北市中山區南京東路一段66號5樓",
    "district": "中山區",
    "city": "台北市",
    "lat": 25.0524,
    "lng": 121.5285,
    "phone": "02-2567-0220",
    "rating": 4.1,
    "reviewCount": 175
  },
  {
    "name": "采醫醫美診所 信義",
    "address": "台北市信義區基隆路一段155號3樓",
    "district": "信義區",
    "city": "台北市",
    "lat": 25.0410,
    "lng": 121.5660,
    "phone": "02-2767-7993",
    "rating": 4.3,
    "reviewCount": 230
  },
  {
    "name": "采醫醫美診所 中山",
    "address": "台北市中山區林森北路556號1樓",
    "district": "中山區",
    "city": "台北市",
    "lat": 25.0680,
    "lng": 121.5252,
    "phone": "02-2585-5580",
    "rating": 4.2,
    "reviewCount": 210
  },
  {
    "name": "彭賢禮皮膚科診所",
    "address": "台北市大安區忠孝東路四段69號9樓",
    "district": "大安區",
    "city": "台北市",
    "lat": 25.0416,
    "lng": 121.5480,
    "phone": "02-2751-2100",
    "rating": 4.5,
    "reviewCount": 360
  },
  {
    "name": "盧靜怡皮膚科診所",
    "address": "台北市大安區忠孝東路四段44號11樓",
    "district": "大安區",
    "city": "台北市",
    "lat": 25.0417,
    "lng": 121.5465,
    "phone": "02-2731-8101",
    "rating": 4.6,
    "reviewCount": 440
  },
  {
    "name": "長虹診所",
    "address": "台北市中山區長安東路二段67號3樓",
    "district": "中山區",
    "city": "台北市",
    "lat": 25.0498,
    "lng": 121.5340,
    "phone": "02-2507-5553",
    "rating": 4.3,
    "reviewCount": 280
  },
  {
    "name": "維格醫美診所 台北",
    "address": "台北市中山區南京東路二段5號8樓",
    "district": "中山區",
    "city": "台北市",
    "lat": 25.0520,
    "lng": 121.5282,
    "phone": "02-2508-8228",
    "rating": 4.1,
    "reviewCount": 200
  },
  {
    "name": "教主醫美整形外科診所",
    "address": "台北市大安區和平東路一段6號5樓",
    "district": "大安區",
    "city": "台北市",
    "lat": 25.0263,
    "lng": 121.5285,
    "phone": "02-2368-2000",
    "rating": 4.4,
    "reviewCount": 325
  },
  {
    "name": "君綺診所 站前",
    "address": "台北市中正區忠孝西路一段6號13樓",
    "district": "中正區",
    "city": "台北市",
    "lat": 25.0460,
    "lng": 121.5153,
    "phone": "0800-885-058",
    "rating": 4.2,
    "reviewCount": 315
  },
  {
    "name": "聖宜診所 台北站前",
    "address": "台北市中正區許昌街42號7樓",
    "district": "中正區",
    "city": "台北市",
    "lat": 25.0456,
    "lng": 121.5138,
    "phone": "02-2370-8892",
    "rating": 4.3,
    "reviewCount": 250
  },
  {
    "name": "美力時尚診所 站前",
    "address": "台北市中正區館前路20號4樓",
    "district": "中正區",
    "city": "台北市",
    "lat": 25.0460,
    "lng": 121.5145,
    "phone": "080-038-8666",
    "rating": 4.0,
    "reviewCount": 165
  },
  {
    "name": "粹究美學診所",
    "address": "台北市信義區忠孝東路五段236巷18號",
    "district": "信義區",
    "city": "台北市",
    "lat": 25.0405,
    "lng": 121.5720,
    "phone": "02-2729-9555",
    "rating": 4.7,
    "reviewCount": 280
  },
  {
    "name": "京硯整形外科診所",
    "address": "台北市松山區南京東路三段270號6樓",
    "district": "松山區",
    "city": "台北市",
    "lat": 25.0516,
    "lng": 121.5465,
    "phone": "02-2778-3238",
    "rating": 4.6,
    "reviewCount": 365
  },
  {
    "name": "麗晶時尚診所 台北",
    "address": "台北市中山區南京東路一段52號3樓",
    "district": "中山區",
    "city": "台北市",
    "lat": 25.0524,
    "lng": 121.5275,
    "phone": "02-2536-5650",
    "rating": 4.1,
    "reviewCount": 190
  },
  {
    "name": "童顏有機醫美診所",
    "address": "台北市大安區敦化南路一段187巷35號1樓",
    "district": "大安區",
    "city": "台北市",
    "lat": 25.0370,
    "lng": 121.5500,
    "phone": "02-2731-6558",
    "rating": 4.3,
    "reviewCount": 240
  },
  {
    "name": "潘朵拉美學整形外科診所",
    "address": "台北市大安區忠孝東路四段205巷7號3樓",
    "district": "大安區",
    "city": "台北市",
    "lat": 25.0410,
    "lng": 121.5530,
    "phone": "02-2721-2288",
    "rating": 4.4,
    "reviewCount": 300
  },
  {
    "name": "澤林毛髮體雕診所",
    "address": "台北市大安區忠孝東路四段128號12樓",
    "district": "大安區",
    "city": "台北市",
    "lat": 25.0416,
    "lng": 121.5496,
    "phone": "02-2740-0899",
    "rating": 4.5,
    "reviewCount": 330
  },
  {
    "name": "聖仁皮膚科診所",
    "address": "台北市松山區民生東路三段113巷25弄1號",
    "district": "松山區",
    "city": "台北市",
    "lat": 25.0579,
    "lng": 121.5444,
    "phone": "02-2719-5858",
    "rating": 4.5,
    "reviewCount": 290
  },
  {
    "name": "瑞安診所",
    "address": "台北市大安區瑞安街23號1樓",
    "district": "大安區",
    "city": "台北市",
    "lat": 25.0340,
    "lng": 121.5387,
    "phone": "02-2700-2820",
    "rating": 4.3,
    "reviewCount": 215
  },
  {
    "name": "淨膚皮膚科診所",
    "address": "台北市大安區仁愛路四段20號3樓",
    "district": "大安區",
    "city": "台北市",
    "lat": 25.0375,
    "lng": 121.5445,
    "phone": "02-2708-2008",
    "rating": 4.4,
    "reviewCount": 285
  },
  {
    "name": "淨美皮膚科診所",
    "address": "台北市松山區南京東路三段289號3樓",
    "district": "松山區",
    "city": "台北市",
    "lat": 25.0520,
    "lng": 121.5485,
    "phone": "02-2717-0308",
    "rating": 4.2,
    "reviewCount": 195
  },
  {
    "name": "柏恩診所",
    "address": "台北市中山區南京東路二段97號5樓",
    "district": "中山區",
    "city": "台北市",
    "lat": 25.0522,
    "lng": 121.5335,
    "phone": "02-2521-0909",
    "rating": 4.3,
    "reviewCount": 180
  },
  {
    "name": "晶鑽時尚診所 台北",
    "address": "台北市中正區忠孝東路一段47號",
    "district": "中正區",
    "city": "台北市",
    "lat": 25.0445,
    "lng": 121.5225,
    "phone": "02-2395-0055",
    "rating": 4.0,
    "reviewCount": 155
  },
  {
    "name": "立悅皮膚科診所",
    "address": "台北市信義區松仁路90號3樓",
    "district": "信義區",
    "city": "台北市",
    "lat": 25.0340,
    "lng": 121.5680,
    "phone": "02-2720-3568",
    "rating": 4.4,
    "reviewCount": 210
  },
  {
    "name": "生活美學皮膚科診所",
    "address": "台北市中山區復興北路60號3樓",
    "district": "中山區",
    "city": "台北市",
    "lat": 25.0520,
    "lng": 121.5438,
    "phone": "02-2778-6800",
    "rating": 4.3,
    "reviewCount": 255
  },
  {
    "name": "敦御皮膚科診所",
    "address": "台北市大安區敦化南路一段233巷10號1樓",
    "district": "大安區",
    "city": "台北市",
    "lat": 25.0350,
    "lng": 121.5502,
    "phone": "02-2771-5027",
    "rating": 4.5,
    "reviewCount": 305
  },
  {
    "name": "肌膚之鑰美學診所",
    "address": "台北市松山區南京東路四段16號5樓",
    "district": "松山區",
    "city": "台北市",
    "lat": 25.0520,
    "lng": 121.5510,
    "phone": "02-2545-3377",
    "rating": 4.2,
    "reviewCount": 175
  },
  {
    "name": "星采整形外科診所 信義",
    "address": "台北市信義區忠孝東路五段10號4樓",
    "district": "信義區",
    "city": "台北市",
    "lat": 25.0410,
    "lng": 121.5665,
    "phone": "02-2723-1228",
    "rating": 4.3,
    "reviewCount": 220
  },
  {
    "name": "芙美時尚診所",
    "address": "台北市中山區南京東路二段146號4樓",
    "district": "中山區",
    "city": "台北市",
    "lat": 25.0520,
    "lng": 121.5360,
    "phone": "02-2567-8551",
    "rating": 4.1,
    "reviewCount": 160
  },
  {
    "name": "米蘭時尚診所 善導寺",
    "address": "台北市中正區忠孝東路一段47號",
    "district": "中正區",
    "city": "台北市",
    "lat": 25.0443,
    "lng": 121.5224,
    "phone": "02-2322-2298",
    "rating": 4.2,
    "reviewCount": 260
  },
  {
    "name": "愛爾麗醫美診所 中山",
    "address": "台北市中山區南京東路一段16號3樓",
    "district": "中山區",
    "city": "台北市",
    "lat": 25.0526,
    "lng": 121.5245,
    "phone": "02-2522-3268",
    "rating": 4.0,
    "reviewCount": 170
  },
  {
    "name": "佳醫美人診所 中山",
    "address": "台北市中山區長安東路一段23號2樓",
    "district": "中山區",
    "city": "台北市",
    "lat": 25.0500,
    "lng": 121.5275,
    "phone": "02-2511-9587",
    "rating": 4.2,
    "reviewCount": 195
  },
  {
    "name": "儷寶得皮膚科診所",
    "address": "台北市大安區信義路三段149號9樓",
    "district": "大安區",
    "city": "台北市",
    "lat": 25.0336,
    "lng": 121.5399,
    "phone": "02-2755-5553",
    "rating": 4.4,
    "reviewCount": 310
  },
  {
    "name": "儷人整形外科診所",
    "address": "台北市大安區忠孝東路四段107號3樓",
    "district": "大安區",
    "city": "台北市",
    "lat": 25.0415,
    "lng": 121.5490,
    "phone": "02-2711-1611",
    "rating": 4.3,
    "reviewCount": 275
  },
  {
    "name": "台北亞緻診所",
    "address": "台北市中山區南京東路二段138號3樓",
    "district": "中山區",
    "city": "台北市",
    "lat": 25.0521,
    "lng": 121.5355,
    "phone": "02-2531-8100",
    "rating": 4.4,
    "reviewCount": 290
  },
  {
    "name": "依定美時尚診所",
    "address": "台北市大安區復興南路一段137號3樓",
    "district": "大安區",
    "city": "台北市",
    "lat": 25.0390,
    "lng": 121.5437,
    "phone": "02-2731-0377",
    "rating": 4.1,
    "reviewCount": 145
  },
  {
    "name": "台安醫美中心",
    "address": "台北市松山區八德路二段424號",
    "district": "松山區",
    "city": "台北市",
    "lat": 25.0486,
    "lng": 121.5530,
    "phone": "02-2771-8151",
    "rating": 4.3,
    "reviewCount": 225
  },
  {
    "name": "藝群醫學美容集團 士林",
    "address": "台北市士林區中正路422號",
    "district": "士林區",
    "city": "台北市",
    "lat": 25.0935,
    "lng": 121.5230,
    "phone": "02-2834-3930",
    "rating": 4.2,
    "reviewCount": 185
  },
  {
    "name": "藝群醫學美容集團 內湖",
    "address": "台北市內湖區成功路四段58號4樓",
    "district": "內湖區",
    "city": "台北市",
    "lat": 25.0825,
    "lng": 121.5890,
    "phone": "02-8792-4624",
    "rating": 4.1,
    "reviewCount": 170
  },
  {
    "name": "高雄美妍醫美診所 台北",
    "address": "台北市中山區長安東路一段58號3樓",
    "district": "中山區",
    "city": "台北市",
    "lat": 25.0497,
    "lng": 121.5305,
    "phone": "02-2568-3919",
    "rating": 4.0,
    "reviewCount": 150
  },
  {
    "name": "珈禾美學診所",
    "address": "台北市松山區南京東路三段314號4樓",
    "district": "松山區",
    "city": "台北市",
    "lat": 25.0516,
    "lng": 121.5500,
    "phone": "02-2712-5828",
    "rating": 4.5,
    "reviewCount": 340
  },
  {
    "name": "曜生醫美診所",
    "address": "台北市大安區信義路四段265巷12弄1號",
    "district": "大安區",
    "city": "台北市",
    "lat": 25.0320,
    "lng": 121.5512,
    "phone": "02-2706-8866",
    "rating": 4.4,
    "reviewCount": 210
  },
  {
    "name": "101skin晶漾診所",
    "address": "台北市信義區忠孝東路五段16號3樓",
    "district": "信義區",
    "city": "台北市",
    "lat": 25.0409,
    "lng": 121.5670,
    "phone": "02-2723-1268",
    "rating": 4.2,
    "reviewCount": 195
  },
  {
    "name": "永欣診所",
    "address": "台北市中山區民權東路二段72號3樓",
    "district": "中山區",
    "city": "台北市",
    "lat": 25.0620,
    "lng": 121.5350,
    "phone": "02-2593-8883",
    "rating": 4.1,
    "reviewCount": 165
  },
  {
    "name": "立新美學診所",
    "address": "台北市萬華區成都路12號5樓",
    "district": "萬華區",
    "city": "台北市",
    "lat": 25.0420,
    "lng": 121.5060,
    "phone": "02-2381-0909",
    "rating": 4.0,
    "reviewCount": 140
  },
  {
    "name": "碧眼診所",
    "address": "台北市士林區天母東路8巷41號1樓",
    "district": "士林區",
    "city": "台北市",
    "lat": 25.1135,
    "lng": 121.5300,
    "phone": "02-2876-0068",
    "rating": 4.5,
    "reviewCount": 270
  },
  {
    "name": "光點時尚診所",
    "address": "台北市內湖區成功路四段168號3樓",
    "district": "內湖區",
    "city": "台北市",
    "lat": 25.0830,
    "lng": 121.5910,
    "phone": "02-8792-5033",
    "rating": 4.2,
    "reviewCount": 175
  },
  {
    "name": "馥蘭朵美學診所",
    "address": "台北市中山區民生東路一段42號3樓",
    "district": "中山區",
    "city": "台北市",
    "lat": 25.0577,
    "lng": 121.5280,
    "phone": "02-2511-7122",
    "rating": 4.3,
    "reviewCount": 205
  },
  {
    "name": "淨妍醫美診所 板橋",
    "address": "新北市板橋區中山路一段6號6樓",
    "district": "板橋區",
    "city": "新北市",
    "lat": 25.0140,
    "lng": 121.4590,
    "phone": "02-2958-2198",
    "rating": 4.3,
    "reviewCount": 240
  },
  {
    "name": "星采整形外科診所 板橋",
    "address": "新北市板橋區文化路一段128號3樓",
    "district": "板橋區",
    "city": "新北市",
    "lat": 25.0155,
    "lng": 121.4605,
    "phone": "02-2955-1178",
    "rating": 4.2,
    "reviewCount": 200
  },
  {
    "name": "愛爾麗醫美診所 板橋",
    "address": "新北市板橋區中山路一段50號3樓",
    "district": "板橋區",
    "city": "新北市",
    "lat": 25.0143,
    "lng": 121.4585,
    "phone": "02-2951-3268",
    "rating": 4.0,
    "reviewCount": 165
  },
  {
    "name": "聖雅諾美學診所",
    "address": "新北市中和區中山路三段118之1號",
    "district": "中和區",
    "city": "新北市",
    "lat": 24.9982,
    "lng": 121.4865,
    "phone": "02-3234-9889",
    "rating": 4.3,
    "reviewCount": 225
  },
  {
    "name": "明洞美學診所",
    "address": "新北市永和區得和路273號6樓",
    "district": "永和區",
    "city": "新北市",
    "lat": 25.0038,
    "lng": 121.5120,
    "phone": "02-2232-9299",
    "rating": 4.4,
    "reviewCount": 285
  },
  {
    "name": "群英皮膚科整形外科 永和",
    "address": "新北市永和區中正路746號5樓",
    "district": "永和區",
    "city": "新北市",
    "lat": 25.0095,
    "lng": 121.5140,
    "phone": "02-2921-6288",
    "rating": 4.3,
    "reviewCount": 260
  },
  {
    "name": "美上美皮膚科診所",
    "address": "新北市三重區正義北路104號2樓",
    "district": "三重區",
    "city": "新北市",
    "lat": 25.0580,
    "lng": 121.4865,
    "phone": "02-8985-9060",
    "rating": 4.5,
    "reviewCount": 380
  },
  {
    "name": "佳醫美人診所 新店",
    "address": "新北市新店區北新路三段207號2樓",
    "district": "新店區",
    "city": "新北市",
    "lat": 24.9720,
    "lng": 121.5420,
    "phone": "02-8911-0858",
    "rating": 4.2,
    "reviewCount": 190
  },
  {
    "name": "君綺診所 新莊",
    "address": "新北市新莊區中正路261號3樓",
    "district": "新莊區",
    "city": "新北市",
    "lat": 25.0370,
    "lng": 121.4505,
    "phone": "02-2277-2066",
    "rating": 4.1,
    "reviewCount": 175
  },
  {
    "name": "藝群醫學美容集團 板橋",
    "address": "新北市板橋區中山路一段67號5樓",
    "district": "板橋區",
    "city": "新北市",
    "lat": 25.0142,
    "lng": 121.4588,
    "phone": "02-2952-0058",
    "rating": 4.1,
    "reviewCount": 165
  },
  {
    "name": "藝群醫學美容集團 永和",
    "address": "新北市永和區中山路一段142號1樓",
    "district": "永和區",
    "city": "新北市",
    "lat": 25.0110,
    "lng": 121.5132,
    "phone": "02-8231-7581",
    "rating": 4.0,
    "reviewCount": 150
  },
  {
    "name": "米蘭時尚診所 新莊",
    "address": "新北市新莊區中正路146號3樓",
    "district": "新莊區",
    "city": "新北市",
    "lat": 25.0365,
    "lng": 121.4510,
    "phone": "02-8521-2298",
    "rating": 4.1,
    "reviewCount": 180
  },
  {
    "name": "光澤診所 板橋",
    "address": "新北市板橋區民權路202號3樓",
    "district": "板橋區",
    "city": "新北市",
    "lat": 25.0148,
    "lng": 121.4575,
    "phone": "02-2956-2656",
    "rating": 4.3,
    "reviewCount": 210
  },
  {
    "name": "元和雅診所 中永和",
    "address": "新北市永和區中正路281號3樓",
    "district": "永和區",
    "city": "新北市",
    "lat": 25.0090,
    "lng": 121.5135,
    "phone": "02-2926-8886",
    "rating": 4.0,
    "reviewCount": 155
  },
  {
    "name": "奇美醫美診所 板橋",
    "address": "新北市板橋區文化路二段182巷3弄46號",
    "district": "板橋區",
    "city": "新北市",
    "lat": 25.0180,
    "lng": 121.4650,
    "phone": "02-2253-1377",
    "rating": 4.2,
    "reviewCount": 185
  },
  {
    "name": "席睿時尚美醫診所 板橋",
    "address": "新北市板橋區新府路2之7號2樓",
    "district": "板橋區",
    "city": "新北市",
    "lat": 25.0132,
    "lng": 121.4630,
    "phone": "02-2255-0558",
    "rating": 4.1,
    "reviewCount": 170
  },
  {
    "name": "悠美診所 新北板橋",
    "address": "新北市板橋區縣民大道二段68號3樓",
    "district": "板橋區",
    "city": "新北市",
    "lat": 25.0138,
    "lng": 121.4600,
    "phone": "02-2966-0066",
    "rating": 4.3,
    "reviewCount": 235
  },
  {
    "name": "靚美時尚診所",
    "address": "新北市三重區重新路二段27號3樓",
    "district": "三重區",
    "city": "新北市",
    "lat": 25.0590,
    "lng": 121.4890,
    "phone": "02-2974-5858",
    "rating": 4.0,
    "reviewCount": 135
  },
  {
    "name": "新店耀美牙醫暨醫美診所",
    "address": "新北市新店區中興路三段1號",
    "district": "新店區",
    "city": "新北市",
    "lat": 24.9675,
    "lng": 121.5378,
    "phone": "02-2912-1233",
    "rating": 4.3,
    "reviewCount": 195
  },
  {
    "name": "肌活麗學診所 中和",
    "address": "新北市中和區景平路658號3樓",
    "district": "中和區",
    "city": "新北市",
    "lat": 24.9950,
    "lng": 121.4990,
    "phone": "02-8242-1566",
    "rating": 4.2,
    "reviewCount": 160
  },
  {
    "name": "渾然天成整形醫美診所 新北",
    "address": "新北市板橋區區運路6號3樓",
    "district": "板橋區",
    "city": "新北市",
    "lat": 25.0160,
    "lng": 121.4615,
    "phone": "02-2255-2328",
    "rating": 4.5,
    "reviewCount": 310
  },
  {
    "name": "星和診所 新北永和",
    "address": "新北市永和區中山路一段238號2樓",
    "district": "永和區",
    "city": "新北市",
    "lat": 25.0100,
    "lng": 121.5150,
    "phone": "02-2232-0078",
    "rating": 4.2,
    "reviewCount": 200
  },
  {
    "name": "聖宜診所 板橋",
    "address": "新北市板橋區中山路一段10號6樓",
    "district": "板橋區",
    "city": "新北市",
    "lat": 25.0141,
    "lng": 121.4591,
    "phone": "02-2955-8892",
    "rating": 4.2,
    "reviewCount": 185
  },
  {
    "name": "朵特菈醫美診所 中和",
    "address": "新北市中和區中和路350號3樓",
    "district": "中和區",
    "city": "新北市",
    "lat": 24.9995,
    "lng": 121.4910,
    "phone": "02-2248-7088",
    "rating": 4.3,
    "reviewCount": 195
  },
  {
    "name": "蘭馨時尚診所 汐止",
    "address": "新北市汐止區新台五路一段99號3樓",
    "district": "汐止區",
    "city": "新北市",
    "lat": 25.0620,
    "lng": 121.6410,
    "phone": "02-2697-1258",
    "rating": 4.1,
    "reviewCount": 145
  },
  {
    "name": "洛陽美學診所",
    "address": "新北市蘆洲區中正路148號2樓",
    "district": "蘆洲區",
    "city": "新北市",
    "lat": 25.0853,
    "lng": 121.4730,
    "phone": "02-2281-0908",
    "rating": 4.0,
    "reviewCount": 130
  },
  {
    "name": "優佳美時尚診所 新莊",
    "address": "新北市新莊區幸福路733號2樓",
    "district": "新莊區",
    "city": "新北市",
    "lat": 25.0510,
    "lng": 121.4370,
    "phone": "02-8992-0808",
    "rating": 4.2,
    "reviewCount": 155
  },
  {
    "name": "君綺診所 板橋",
    "address": "新北市板橋區中山路一段163號3樓",
    "district": "板橋區",
    "city": "新北市",
    "lat": 25.0150,
    "lng": 121.4578,
    "phone": "02-2951-2066",
    "rating": 4.2,
    "reviewCount": 205
  },
  {
    "name": "愛爾麗醫美診所 新莊",
    "address": "新北市新莊區中正路350號2樓",
    "district": "新莊區",
    "city": "新北市",
    "lat": 25.0358,
    "lng": 121.4498,
    "phone": "02-2100-2238",
    "rating": 4.0,
    "reviewCount": 155
  }
]
