[
  {
    "name": "星和診所（台北）",
    "address": "台北市中正區館前路2號6樓之一",
    "district": "中正區",
    "city": "台北市",
    "lat": 25.0462,
    "lng": 121.5150,
    "phone": "02-2388-7778",
    "rating": 4.2,
    "reviewCount": 380
  },
  {
    "name": "古亭星和診所",
    "address": "台北市中正區羅斯福路一段32號2樓",
    "district": "中正區",
    "city": "台北市",
    "lat": 25.0282,
    "lng": 121.5189,
    "phone": "02-2395-1167",
    "rating": 4.3,
    "reviewCount": 210
  },
  {
    "name": "仁愛星和診所",
    "address": "台北市大安區仁愛路四段137號2樓之1",
    "district": "大安區",
    "city": "台北市",
    "lat": 25.0378,
    "lng": 121.5518,
    "phone": "02-2711-7128",
    "rating": 4.4,
    "reviewCount": 295
  },
  {
    "name": "逆時整形外科診所（原星采整形外科診所）",
    "address": "台北市大安區仁愛路四段137號3樓之2",
    "district": "大安區",
    "city": "台北市",
    "lat": 25.0378,
    "lng": 121.5518,
    "phone": "02-2325-3678",
    "rating": 4.3,
    "reviewCount": 185
  },
  {
    "name": "板橋星和診所",
    "address": "新北市板橋區中山路一段67號4樓",
    "district": "板橋區",
    "city": "新北市",
    "lat": 25.0093,
    "lng": 121.4594,
    "phone": "02-2959-5376",
    "rating": 4.2,
    "reviewCount": 165
  },
  {
    "name": "美麗晶華診所",
    "address": "台北市中山區中山北路二段81號",
    "district": "中山區",
    "city": "台北市",
    "lat": 25.0575,
    "lng": 121.5227,
    "phone": "02-2523-2313",
    "rating": 4.5,
    "reviewCount": 420
  },
  {
    "name": "晶華美醫診所（晶心美醫）",
    "address": "台北市中山區中山北路二段39巷2-2號3樓",
    "district": "中山區",
    "city": "台北市",
    "lat": 25.0542,
    "lng": 121.5225,
    "phone": "02-2511-1000",
    "rating": 4.4,
    "reviewCount": 310
  },
  {
    "name": "膚適美診所",
    "address": "台北市大安區忠孝東路四段76號8樓",
    "district": "大安區",
    "city": "台北市",
    "lat": 25.0416,
    "lng": 121.5468,
    "phone": "02-2778-2883",
    "rating": 4.6,
    "reviewCount": 530
  },
  {
    "name": "iSkin盧靜怡皮膚專科",
    "address": "台北市大安區光復南路288號2樓之5",
    "district": "大安區",
    "city": "台北市",
    "lat": 25.0400,
    "lng": 121.5571,
    "phone": "02-2751-2066",
    "rating": 4.5,
    "reviewCount": 480
  },
  {
    "name": "悠美診所（主院）",
    "address": "台北市大安區忠孝東路四段15號6樓",
    "district": "大安區",
    "city": "台北市",
    "lat": 25.0418,
    "lng": 121.5441,
    "phone": "0800-000-593",
    "rating": 4.3,
    "reviewCount": 350
  },
  {
    "name": "敦南悠美診所",
    "address": "台北市大安區忠孝東路四段124-2號3樓",
    "district": "大安區",
    "city": "台北市",
    "lat": 25.0416,
    "lng": 121.5496,
    "phone": "0800-000-593",
    "rating": 4.2,
    "reviewCount": 280
  },
  {
    "name": "松阪悠美診所",
    "address": "台北市信義區基隆路一段172巷7號2樓",
    "district": "信義區",
    "city": "台北市",
    "lat": 25.0413,
    "lng": 121.5609,
    "phone": "0800-000-593",
    "rating": 4.1,
    "reviewCount": 175
  },
  {
    "name": "淨妍醫美診所（忠孝）",
    "address": "台北市大安區忠孝東路四段212號4樓",
    "district": "大安區",
    "city": "台北市",
    "lat": 25.0415,
    "lng": 121.5530,
    "phone": "02-7730-8286",
    "rating": 4.3,
    "reviewCount": 390
  },
  {
    "name": "淨妍醫美診所（中山）",
    "address": "台北市中山區南京東路二段20號3樓",
    "district": "中山區",
    "city": "台北市",
    "lat": 25.0523,
    "lng": 121.5280,
    "phone": "02-7729-6711",
    "rating": 4.4,
    "reviewCount": 320
  },
  {
    "name": "淨妍醫美診所（內湖）",
    "address": "台北市內湖區成功路四段168號5樓",
    "district": "內湖區",
    "city": "台北市",
    "lat": 25.0838,
    "lng": 121.5911,
    "phone": "02-7752-3537",
    "rating": 4.2,
    "reviewCount": 185
  },
  {
    "name": "淨妍醫美診所（板橋）",
    "address": "新北市板橋區重慶路8號3樓",
    "district": "板橋區",
    "city": "新北市",
    "lat": 25.0145,
    "lng": 121.4593,
    "phone": "02-7730-0922",
    "rating": 4.3,
    "reviewCount": 250
  },
  {
    "name": "淨妍醫美診所（永和）",
    "address": "新北市永和區竹林路222號3樓",
    "district": "永和區",
    "city": "新北市",
    "lat": 25.0087,
    "lng": 121.5160,
    "phone": "02-7730-0773",
    "rating": 4.2,
    "reviewCount": 190
  },
  {
    "name": "淨妍醫美診所（新莊）",
    "address": "新北市新莊區思源路173號11樓",
    "district": "新莊區",
    "city": "新北市",
    "lat": 25.0365,
    "lng": 121.4510,
    "phone": "02-7729-4733",
    "rating": 4.1,
    "reviewCount": 145
  },
  {
    "name": "元和雅醫美診所（台北）",
    "address": "台北市中山區松江路125號2樓",
    "district": "中山區",
    "city": "台北市",
    "lat": 25.0530,
    "lng": 121.5330,
    "phone": "02-2500-0666",
    "rating": 4.0,
    "reviewCount": 260
  },
  {
    "name": "光澤診所（忠孝）",
    "address": "台北市大安區忠孝東路四段1號5樓",
    "district": "大安區",
    "city": "台北市",
    "lat": 25.0418,
    "lng": 121.5435,
    "phone": "02-2778-6565",
    "rating": 4.4,
    "reviewCount": 340
  },
  {
    "name": "光澤診所（古亭）",
    "address": "台北市中正區羅斯福路二段116號1-2樓",
    "district": "中正區",
    "city": "台北市",
    "lat": 25.0254,
    "lng": 121.5216,
    "phone": "02-2368-6181",
    "rating": 4.3,
    "reviewCount": 275
  },
  {
    "name": "光澤診所（南西）",
    "address": "台北市中山區南京東路一段24號7樓",
    "district": "中山區",
    "city": "台北市",
    "lat": 25.0518,
    "lng": 121.5246,
    "phone": "02-2522-1509",
    "rating": 4.3,
    "reviewCount": 230
  },
  {
    "name": "光澤診所（南京）",
    "address": "台北市松山區南京東路五段154號2樓",
    "district": "松山區",
    "city": "台北市",
    "lat": 25.0515,
    "lng": 121.5631,
    "phone": "02-2749-5589",
    "rating": 4.2,
    "reviewCount": 165
  },
  {
    "name": "光澤診所（板橋中山）",
    "address": "新北市板橋區中山路一段3號6樓",
    "district": "板橋區",
    "city": "新北市",
    "lat": 25.0095,
    "lng": 121.4590,
    "phone": "02-2956-6600",
    "rating": 4.3,
    "reviewCount": 195
  },
  {
    "name": "光澤診所（板橋館前）",
    "address": "新北市板橋區館前東路2號",
    "district": "板橋區",
    "city": "新北市",
    "lat": 25.0140,
    "lng": 121.4630,
    "phone": "02-2955-1300",
    "rating": 4.2,
    "reviewCount": 155
  },
  {
    "name": "光澤診所（三重）",
    "address": "新北市三重區正義北路122號",
    "district": "三重區",
    "city": "新北市",
    "lat": 25.0621,
    "lng": 121.4878,
    "phone": "02-2985-0300",
    "rating": 4.1,
    "reviewCount": 130
  },
  {
    "name": "渾然天成整形醫美",
    "address": "台北市中正區忠孝西路一段45號3樓",
    "district": "中正區",
    "city": "台北市",
    "lat": 25.0461,
    "lng": 121.5149,
    "phone": "02-2388-3188",
    "rating": 4.5,
    "reviewCount": 520
  },
  {
    "name": "麗晶整形外科診所",
    "address": "台北市大安區忠孝東路四段2號12樓",
    "district": "大安區",
    "city": "台北市",
    "lat": 25.0417,
    "lng": 121.5436,
    "phone": "02-2731-4008",
    "rating": 4.3,
    "reviewCount": 270
  },
  {
    "name": "采醫醫美（信義門市）",
    "address": "台北市信義區基隆路一段155號3F-3",
    "district": "信義區",
    "city": "台北市",
    "lat": 25.0420,
    "lng": 121.5590,
    "phone": "02-2767-7993",
    "rating": 4.1,
    "reviewCount": 180
  },
  {
    "name": "采醫醫美（中山門市）",
    "address": "台北市中山區林森北路556號1-2樓",
    "district": "中山區",
    "city": "台北市",
    "lat": 25.0679,
    "lng": 121.5258,
    "phone": "02-2585-5580",
    "rating": 4.0,
    "reviewCount": 145
  },
  {
    "name": "首爾醫美診所",
    "address": "台北市大安區信義路四段382號5樓",
    "district": "大安區",
    "city": "台北市",
    "lat": 25.0327,
    "lng": 121.5569,
    "phone": "02-2755-6653",
    "rating": 4.6,
    "reviewCount": 410
  },
  {
    "name": "極光美學診所（台北小巨蛋）",
    "address": "台北市松山區南京東路四段25號2樓",
    "district": "松山區",
    "city": "台北市",
    "lat": 25.0515,
    "lng": 121.5516,
    "phone": "02-2547-5959",
    "rating": 4.7,
    "reviewCount": 560
  },
  {
    "name": "上立美學皮膚科診所",
    "address": "新北市永和區中山路一段75號1-2樓",
    "district": "永和區",
    "city": "新北市",
    "lat": 25.0125,
    "lng": 121.5140,
    "phone": "02-8921-5010",
    "rating": 4.7,
    "reviewCount": 620
  },
  {
    "name": "法喬醫美診所（台北）",
    "address": "台北市大安區忠孝東路四段73-2號3樓",
    "district": "大安區",
    "city": "台北市",
    "lat": 25.0417,
    "lng": 121.5465,
    "phone": "02-2719-9010",
    "rating": 4.4,
    "reviewCount": 375
  },
  {
    "name": "願麗醫美診所（仁愛旗艦店）",
    "address": "台北市大安區仁愛路四段33號2樓之1",
    "district": "大安區",
    "city": "台北市",
    "lat": 25.0377,
    "lng": 121.5432,
    "phone": "02-2731-1732",
    "rating": 4.5,
    "reviewCount": 350
  },
  {
    "name": "麗思醫美診所（願麗集團西門分院）",
    "address": "台北市萬華區成都路4號4樓",
    "district": "萬華區",
    "city": "台北市",
    "lat": 25.0425,
    "lng": 121.5076,
    "phone": "02-2388-8863",
    "rating": 4.3,
    "reviewCount": 210
  },
  {
    "name": "雅偲皮膚科診所",
    "address": "台北市信義區忠孝東路四段563號6樓",
    "district": "信義區",
    "city": "台北市",
    "lat": 25.0404,
    "lng": 121.5726,
    "phone": "02-2760-0055",
    "rating": 4.5,
    "reviewCount": 430
  },
  {
    "name": "愛爾麗診所（忠孝）",
    "address": "台北市大安區忠孝東路三段305號3樓",
    "district": "大安區",
    "city": "台北市",
    "lat": 25.0415,
    "lng": 121.5420,
    "phone": "02-2740-2338",
    "rating": 4.1,
    "reviewCount": 240
  },
  {
    "name": "愛爾麗診所（站前）",
    "address": "台北市中正區忠孝西路一段6號8樓",
    "district": "中正區",
    "city": "台北市",
    "lat": 25.0463,
    "lng": 121.5148,
    "phone": "02-2382-0999",
    "rating": 4.0,
    "reviewCount": 195
  },
  {
    "name": "愛爾麗診所（南京）",
    "address": "台北市中山區南京東路二段100號2樓",
    "district": "中山區",
    "city": "台北市",
    "lat": 25.0521,
    "lng": 121.5320,
    "phone": "02-2523-8369",
    "rating": 4.2,
    "reviewCount": 210
  },
  {
    "name": "愛爾麗診所（信義）",
    "address": "台北市信義區松高路77號18樓",
    "district": "信義區",
    "city": "台北市",
    "lat": 25.0354,
    "lng": 121.5666,
    "phone": "02-8771-5868",
    "rating": 4.1,
    "reviewCount": 170
  },
  {
    "name": "愛爾麗診所（板橋）",
    "address": "新北市板橋區中山路一段6號3樓",
    "district": "板橋區",
    "city": "新北市",
    "lat": 25.0094,
    "lng": 121.4591,
    "phone": "02-2951-3359",
    "rating": 4.0,
    "reviewCount": 155
  },
  {
    "name": "愛爾麗診所（新莊）",
    "address": "新北市新莊區新泰路131號1樓",
    "district": "新莊區",
    "city": "新北市",
    "lat": 25.0363,
    "lng": 121.4504,
    "phone": "02-8992-5999",
    "rating": 4.0,
    "reviewCount": 120
  },
  {
    "name": "米蘭時尚診所（台北館）",
    "address": "台北市中正區忠孝東路一段47號",
    "district": "中正區",
    "city": "台北市",
    "lat": 25.0445,
    "lng": 121.5237,
    "phone": "02-2322-2298",
    "rating": 4.2,
    "reviewCount": 310
  },
  {
    "name": "佳醫美人診所（仁愛）",
    "address": "台北市大安區仁愛路四段66號2樓",
    "district": "大安區",
    "city": "台北市",
    "lat": 25.0375,
    "lng": 121.5480,
    "phone": "02-2708-6333",
    "rating": 4.4,
    "reviewCount": 365
  },
  {
    "name": "佳醫美人診所（大直）",
    "address": "台北市中山區樂群三路287號",
    "district": "中山區",
    "city": "台北市",
    "lat": 25.0816,
    "lng": 121.5570,
    "phone": "02-8502-6086",
    "rating": 4.3,
    "reviewCount": 220
  },
  {
    "name": "君綺診所（忠孝）",
    "address": "台北市大安區忠孝東路四段30號5樓",
    "district": "大安區",
    "city": "台北市",
    "lat": 25.0417,
    "lng": 121.5450,
    "phone": "0800-885-058",
    "rating": 4.2,
    "reviewCount": 380
  },
  {
    "name": "君綺診所（信義館）",
    "address": "台北市信義區松智路1號5樓",
    "district": "信義區",
    "city": "台北市",
    "lat": 25.0354,
    "lng": 121.5668,
    "phone": "0800-885-058",
    "rating": 4.3,
    "reviewCount": 290
  },
  {
    "name": "君綺診所（站前館）",
    "address": "台北市中正區忠孝西路一段6號13樓",
    "district": "中正區",
    "city": "台北市",
    "lat": 25.0463,
    "lng": 121.5148,
    "phone": "0800-885-058",
    "rating": 4.1,
    "reviewCount": 265
  },
  {
    "name": "君綺診所（敦南）",
    "address": "台北市松山區敦化南路一段25號2樓",
    "district": "松山區",
    "city": "台北市",
    "lat": 25.0467,
    "lng": 121.5497,
    "phone": "0800-885-058",
    "rating": 4.3,
    "reviewCount": 315
  },
  {
    "name": "君綺診所（南京）",
    "address": "台北市中山區南京東路二段111號2樓",
    "district": "中山區",
    "city": "台北市",
    "lat": 25.0522,
    "lng": 121.5335,
    "phone": "0800-885-058",
    "rating": 4.2,
    "reviewCount": 245
  },
  {
    "name": "佳思優整形醫美診所（敦北旗艦）",
    "address": "台北市松山區敦化北路8號1-2樓",
    "district": "松山區",
    "city": "台北市",
    "lat": 25.0479,
    "lng": 121.5497,
    "phone": "0800-060-111",
    "rating": 4.6,
    "reviewCount": 450
  },
  {
    "name": "佳思優整形醫美診所（台北總院）",
    "address": "台北市大安區新生南路一段153號2樓",
    "district": "大安區",
    "city": "台北市",
    "lat": 25.0360,
    "lng": 121.5339,
    "phone": "0800-060-111",
    "rating": 4.5,
    "reviewCount": 380
  },
  {
    "name": "八千代診所（比鼻）",
    "address": "台北市大安區復興南路一段200號5樓",
    "district": "大安區",
    "city": "台北市",
    "lat": 25.0380,
    "lng": 121.5434,
    "phone": "02-8773-0011",
    "rating": 4.3,
    "reviewCount": 340
  },
  {
    "name": "八千代診所（微風）",
    "address": "台北市信義區基隆路一段163號15樓之2",
    "district": "信義區",
    "city": "台北市",
    "lat": 25.0418,
    "lng": 121.5601,
    "phone": "02-2765-5757",
    "rating": 4.2,
    "reviewCount": 230
  },
  {
    "name": "八千代診所（中山）",
    "address": "台北市中山區南京西路1號6樓之11",
    "district": "中山區",
    "city": "台北市",
    "lat": 25.0524,
    "lng": 121.5218,
    "phone": "02-2581-0303",
    "rating": 4.3,
    "reviewCount": 275
  },
  {
    "name": "群英整形外科診所（台北）",
    "address": "台北市大安區信義路四段281號3樓",
    "district": "大安區",
    "city": "台北市",
    "lat": 25.0326,
    "lng": 121.5535,
    "phone": "02-2772-9880",
    "rating": 4.5,
    "reviewCount": 490
  },
  {
    "name": "群英皮膚科整形外科診所（永和頂溪）",
    "address": "新北市永和區中正路746號5樓",
    "district": "永和區",
    "city": "新北市",
    "lat": 25.0115,
    "lng": 121.5107,
    "phone": "02-2921-6288",
    "rating": 4.4,
    "reviewCount": 350
  },
  {
    "name": "凡登整形外科診所（台北）",
    "address": "台北市大安區信義路三段149號3樓",
    "district": "大安區",
    "city": "台北市",
    "lat": 25.0337,
    "lng": 121.5387,
    "phone": "02-2703-8858",
    "rating": 4.4,
    "reviewCount": 370
  },
  {
    "name": "越L'EXCELLENCE醫療美學",
    "address": "台北市中山區南京東路二段41巷8號",
    "district": "中山區",
    "city": "台北市",
    "lat": 25.0525,
    "lng": 121.5306,
    "phone": "02-2571-1881",
    "rating": 4.6,
    "reviewCount": 380
  },
  {
    "name": "豐秀整形外科診所",
    "address": "台北市中山區中山北路二段52號2樓",
    "district": "中山區",
    "city": "台北市",
    "lat": 25.0555,
    "lng": 121.5225,
    "phone": "02-2521-8080",
    "rating": 4.5,
    "reviewCount": 295
  },
  {
    "name": "儷寶得皮膚科診所（信義）",
    "address": "台北市信義區忠孝東路五段15巷15號1樓",
    "district": "信義區",
    "city": "台北市",
    "lat": 25.0400,
    "lng": 121.5733,
    "phone": "02-8787-5122",
    "rating": 4.5,
    "reviewCount": 420
  },
  {
    "name": "儷寶得皮膚科診所（永春）",
    "address": "台北市信義區忠孝東路五段238號1樓",
    "district": "信義區",
    "city": "台北市",
    "lat": 25.0395,
    "lng": 121.5768,
    "phone": "02-8787-5122",
    "rating": 4.4,
    "reviewCount": 310
  },
  {
    "name": "粹究美學診所",
    "address": "台北市中山區南京東路二段20號2樓",
    "district": "中山區",
    "city": "台北市",
    "lat": 25.0523,
    "lng": 121.5280,
    "phone": "02-2536-3678",
    "rating": 4.7,
    "reviewCount": 280
  },
  {
    "name": "維格醫美（南西）",
    "address": "台北市中山區南京西路22號3樓",
    "district": "中山區",
    "city": "台北市",
    "lat": 25.0526,
    "lng": 121.5212,
    "phone": "02-2555-5575",
    "rating": 4.3,
    "reviewCount": 320
  },
  {
    "name": "維格醫美（信義後山埤）",
    "address": "台北市信義區中坡北路3號1樓",
    "district": "信義區",
    "city": "台北市",
    "lat": 25.0380,
    "lng": 121.5810,
    "phone": "02-2785-0011",
    "rating": 4.2,
    "reviewCount": 210
  },
  {
    "name": "維格皮膚科診所（新店）",
    "address": "新北市新店區北新路三段100號",
    "district": "新店區",
    "city": "新北市",
    "lat": 24.9812,
    "lng": 121.5398,
    "phone": "02-8911-8555",
    "rating": 4.3,
    "reviewCount": 265
  },
  {
    "name": "教主醫美整形外科診所（台北）",
    "address": "台北市大安區和平東路一段6號5樓",
    "district": "大安區",
    "city": "台北市",
    "lat": 25.0265,
    "lng": 121.5293,
    "phone": "02-2368-2000",
    "rating": 4.3,
    "reviewCount": 295
  },
  {
    "name": "恆美學診所（小巨蛋）",
    "address": "台北市松山區南京東路四段56號2樓",
    "district": "松山區",
    "city": "台北市",
    "lat": 25.0516,
    "lng": 121.5534,
    "phone": "02-2547-5858",
    "rating": 4.5,
    "reviewCount": 310
  },
  {
    "name": "恆美學診所（中山）",
    "address": "台北市中山區南京東路一段46號7樓",
    "district": "中山區",
    "city": "台北市",
    "lat": 25.0520,
    "lng": 121.5260,
    "phone": "02-2543-2009",
    "rating": 4.4,
    "reviewCount": 245
  },
  {
    "name": "恆美學診所（信義）",
    "address": "台北市信義區忠孝東路四段565號1樓",
    "district": "信義區",
    "city": "台北市",
    "lat": 25.0403,
    "lng": 121.5728,
    "phone": "02-2760-1818",
    "rating": 4.5,
    "reviewCount": 220
  },
  {
    "name": "沐美診所（仁愛館）",
    "address": "台北市大安區仁愛路四段25-1號5樓",
    "district": "大安區",
    "city": "台北市",
    "lat": 25.0378,
    "lng": 121.5420,
    "phone": "02-2779-1177",
    "rating": 4.4,
    "reviewCount": 230
  },
  {
    "name": "沐美診所（南京館）",
    "address": "台北市中山區南京東路二段90號7樓",
    "district": "中山區",
    "city": "台北市",
    "lat": 25.0521,
    "lng": 121.5315,
    "phone": "02-2523-1177",
    "rating": 4.3,
    "reviewCount": 185
  },
  {
    "name": "美麗爾診所（忠孝）",
    "address": "台北市大安區敦化南路一段216號6樓",
    "district": "大安區",
    "city": "台北市",
    "lat": 25.0410,
    "lng": 121.5500,
    "phone": "02-6636-3516",
    "rating": 4.3,
    "reviewCount": 285
  },
  {
    "name": "美麗爾診所（內湖）",
    "address": "台北市內湖區瑞光路478巷22號1樓",
    "district": "內湖區",
    "city": "台北市",
    "lat": 25.0768,
    "lng": 121.5768,
    "phone": "02-7721-8787",
    "rating": 4.2,
    "reviewCount": 195
  },
  {
    "name": "聖宜診所（忠孝館）",
    "address": "台北市大安區敦化南路一段232巷8號1樓",
    "district": "大安區",
    "city": "台北市",
    "lat": 25.0406,
    "lng": 121.5497,
    "phone": "02-8772-5021",
    "rating": 4.2,
    "reviewCount": 265
  },
  {
    "name": "聖宜診所（站前館）",
    "address": "台北市中正區許昌街42號7樓",
    "district": "中正區",
    "city": "台北市",
    "lat": 25.0455,
    "lng": 121.5135,
    "phone": "02-2311-5551",
    "rating": 4.1,
    "reviewCount": 190
  },
  {
    "name": "藝群皮膚科診所（台北總部）",
    "address": "台北市中正區忠孝西路一段102號4樓",
    "district": "中正區",
    "city": "台北市",
    "lat": 25.0460,
    "lng": 121.5125,
    "phone": "02-2383-2952",
    "rating": 4.3,
    "reviewCount": 310
  },
  {
    "name": "藝群皮膚科診所（忠孝）",
    "address": "台北市大安區忠孝東路四段128號10樓",
    "district": "大安區",
    "city": "台北市",
    "lat": 25.0416,
    "lng": 121.5495,
    "phone": "02-2751-0650",
    "rating": 4.3,
    "reviewCount": 245
  },
  {
    "name": "藝群皮膚科診所（士林）",
    "address": "台北市士林區中正路422號",
    "district": "士林區",
    "city": "台北市",
    "lat": 25.0925,
    "lng": 121.5244,
    "phone": "02-2834-3930",
    "rating": 4.2,
    "reviewCount": 230
  },
  {
    "name": "藝群皮膚科診所（內湖）",
    "address": "台北市內湖區成功路四段58號4樓",
    "district": "內湖區",
    "city": "台北市",
    "lat": 25.0832,
    "lng": 121.5880,
    "phone": "02-8792-4624",
    "rating": 4.2,
    "reviewCount": 190
  },
  {
    "name": "藝群皮膚科診所（板橋）",
    "address": "新北市板橋區中山路一段67號5樓",
    "district": "板橋區",
    "city": "新北市",
    "lat": 25.0093,
    "lng": 121.4594,
    "phone": "02-2952-0058",
    "rating": 4.1,
    "reviewCount": 175
  },
  {
    "name": "藝群皮膚科診所（永和）",
    "address": "新北市永和區中山路一段142號1樓",
    "district": "永和區",
    "city": "新北市",
    "lat": 25.0118,
    "lng": 121.5132,
    "phone": "02-8231-7581",
    "rating": 4.2,
    "reviewCount": 200
  },
  {
    "name": "淨美皮膚科診所",
    "address": "台北市士林區文林路317號",
    "district": "士林區",
    "city": "台北市",
    "lat": 25.0928,
    "lng": 121.5258,
    "phone": "02-2881-6099",
    "rating": 4.4,
    "reviewCount": 355
  },
  {
    "name": "達美皮膚專科診所",
    "address": "台北市內湖區成功路四段220號",
    "district": "內湖區",
    "city": "台北市",
    "lat": 25.0830,
    "lng": 121.5925,
    "phone": "02-2792-0218",
    "rating": 4.5,
    "reviewCount": 400
  },
  {
    "name": "雅斯翠診所",
    "address": "台北市內湖區新湖二路87號2樓",
    "district": "內湖區",
    "city": "台北市",
    "lat": 25.0650,
    "lng": 121.5810,
    "phone": "02-8791-8817",
    "rating": 4.3,
    "reviewCount": 215
  },
  {
    "name": "美上美皮膚科診所",
    "address": "新北市三重區正義北路104號2樓",
    "district": "三重區",
    "city": "新北市",
    "lat": 25.0618,
    "lng": 121.4876,
    "phone": "02-8985-9060",
    "rating": 4.5,
    "reviewCount": 480
  },
  {
    "name": "明洞美學診所",
    "address": "新北市永和區得和路273號6樓",
    "district": "永和區",
    "city": "新北市",
    "lat": 25.0028,
    "lng": 121.5085,
    "phone": "02-2232-9299",
    "rating": 4.4,
    "reviewCount": 310
  },
  {
    "name": "聖雅諾美學診所",
    "address": "新北市中和區中山路三段118之1號",
    "district": "中和區",
    "city": "新北市",
    "lat": 24.9985,
    "lng": 121.4963,
    "phone": "02-3234-9889",
    "rating": 4.3,
    "reviewCount": 225
  },
  {
    "name": "群麗醫美診所（永和）",
    "address": "新北市永和區中山路一段190號1樓",
    "district": "永和區",
    "city": "新北市",
    "lat": 25.0110,
    "lng": 121.5128,
    "phone": "02-2926-5151",
    "rating": 4.1,
    "reviewCount": 165
  },
  {
    "name": "美力時尚診所（站前）",
    "address": "台北市中正區館前路20號4樓",
    "district": "中正區",
    "city": "台北市",
    "lat": 25.0460,
    "lng": 121.5140,
    "phone": "0800-388-666",
    "rating": 4.0,
    "reviewCount": 180
  },
  {
    "name": "君綺整形外科（南京松江）",
    "address": "台北市中山區南京東路二段66號2樓",
    "district": "中山區",
    "city": "台北市",
    "lat": 25.0523,
    "lng": 121.5310,
    "phone": "0800-885-058",
    "rating": 4.2,
    "reviewCount": 175
  }
]
